City_ID,City,Country,Max Temp,Current Description,Lat,Lng,Hotel Name
1,Torbay,CA,74.17,scattered clouds,47.6666,-52.7314,Gallows Cove
3,Norman Wells,CA,55.44,overcast clouds,65.282,-126.8329,Heritage Hotel
4,Lagoa,PT,68.58,broken clouds,39.05,-27.9833,Casa Das Faias
5,Benito Juarez,MX,78.62,scattered clouds,19.385,-99.165,Hotel Beverly
7,Murdochville,CA,59.88,broken clouds,48.9583,-65.5006,Les Suites économique Murdochville
8,Atuona,PF,78.13,scattered clouds,-9.8,-139.0333,Villa Enata
9,Makokou,GA,70.27,scattered clouds,0.5738,12.8642,Hôtel
10,Bredasdorp,ZA,59.56,overcast clouds,-34.5322,20.0403,Bredasdorp Country Manor
14,Ucluelet,CA,64.71,few clouds,48.9329,-125.5528,Black Rock Oceanfront Resort
17,Rikitea,PF,72.79,light rain,-23.1203,-134.9692,People ThankYou
19,Jamestown,US,75.02,broken clouds,42.097,-79.2353,Hampton Inn & Suites Jamestown
24,Coquimbo,CL,55.13,drizzle,-29.9533,-71.3436,Hotel San Juan
25,Mpika,ZM,56.26,broken clouds,-11.8343,31.4529,Melodies Lodge
26,Katsuura,JP,75.16,overcast clouds,35.1333,140.3,Katsuura Hotel Mikazuki
28,Tuxpan,MX,74.97,overcast clouds,19.55,-103.4,Hotel y Restaurante Campestre La Cabaña
29,Hasaki,JP,73.8,overcast clouds,35.7333,140.8333,Inubosaki Kanko Hotel
30,Manavalakurichi,IN,78.53,overcast clouds,8.1333,77.3,Jebinrio home
31,Zhigansk,RU,63.45,light rain,66.7697,123.3711,Gostinichnyy Kompleks Aylgy
35,Monte Santo,BR,70.5,broken clouds,-10.4378,-39.3328,Pousada Pingo D'Água
36,Longyearbyen,SJ,55.24,broken clouds,78.2186,15.6401,"Radisson Blu Polar Hotel, Spitsbergen"
37,Caravelas,BR,71.1,clear sky,-17.7125,-39.2481,Pousada dos Navegantes
38,Ponta Do Sol,PT,72.01,few clouds,32.6667,-17.1,Hotel do Campo
39,Cidreira,BR,57.04,clear sky,-30.1811,-50.2056,Hotel Castelo
41,Busselton,AU,61.61,light rain,-33.65,115.3333,Observatory Guest House
42,Jilib,SO,75.43,overcast clouds,0.4883,42.7854,Waadi Hotel
44,Sorland,NO,53.46,overcast clouds,67.667,12.6934,Sjybrygga fiskecamp
45,Avarua,CK,75.25,broken clouds,-21.2078,-159.775,Paradise Inn
47,Bonthe,SL,76.06,light rain,7.5264,-12.505,Bonthe Holiday Village
48,Canico,PT,72.01,broken clouds,32.6333,-16.85,Quinta Splendida Wellness & Botanical Garden
49,Zabaykalsk,RU,60.46,overcast clouds,49.6333,117.3167,Zheleznyy Mir
50,Skegness,GB,62.06,overcast clouds,53.1436,0.3363,The Royal Hotel
53,Huarmey,PE,65.32,few clouds,-10.0681,-78.1522,Hotel Miramar
54,Slyudyanka,RU,57.51,overcast clouds,51.6594,103.7061,Delight
56,Nuuk,GL,56.01,few clouds,64.1835,-51.7216,Vandrehuset
57,Tshela,CD,64.26,few clouds,-4.9833,12.9333,Hotel Mirador
59,Hermanus,ZA,61.81,light rain,-34.4187,19.2345,Misty Waves Boutique Hotel
63,Marsa Matruh,EG,79.0,clear sky,31.3525,27.2453,Beau Site
64,Montpellier,FR,75.56,clear sky,43.6109,3.8772,Hôtel des Arts Comédie
67,Rosetta,EG,75.97,clear sky,31.4044,30.4164,Green Valley
68,Whitehorse,CA,50.77,light intensity shower rain,60.7161,-135.0538,The Sternwheeler Hotel & Conference Centre
69,Bambous Virieux,MU,65.21,light rain,-20.3428,57.7575,Casa Tia Villa
74,Yellowknife,CA,68.52,broken clouds,62.456,-114.3525,The Explorer Hotel
75,Castro,BR,53.53,overcast clouds,-24.7911,-50.0119,CHACARA BAILLY
77,Pacific Grove,US,76.39,clear sky,36.6177,-121.9166,Lovers Point Inn
82,Kodiak,US,60.31,broken clouds,57.79,-152.4072,Best Western Kodiak Inn And Convention Center
84,Fortuna,US,66.85,broken clouds,40.5982,-124.1573,Super 8 by Wyndham Fortuna
87,Hambantota,LK,79.14,few clouds,6.1241,81.1185,Bungalow 63
89,Vaini,TO,78.96,scattered clouds,-21.2,-175.2,Keleti Beach Resort
91,Angoche,MZ,72.66,clear sky,-16.2325,39.9086,Guest House HESADA
93,Inta,RU,64.8,light rain,66.0317,60.1659,Apartments in Inta city
94,Yuzhno-Kurilsk,RU,59.4,overcast clouds,44.0306,145.8556,Guesthouse Berloga
95,Conakry,GN,79.02,moderate rain,9.538,-13.6773,Riviera Royal Hotel
98,Port Alfred,ZA,56.66,clear sky,-33.5906,26.891,The Halyards Hotel
101,Bengkulu,ID,76.21,overcast clouds,-3.8004,102.2655,Grage Hotel Bengkulu
103,East London,ZA,59.4,clear sky,-33.0153,27.9116,Tu Casa
105,Saint-Joseph,RE,66.58,few clouds,-21.3667,55.6167,"""Plantation Bed and Breakfast"
107,Hofn,IS,50.74,scattered clouds,64.2539,-15.2082,Hótel Höfn
108,Mar Del Plata,AR,55.87,clear sky,-38.0023,-57.5575,Gran Hotel Mar del Plata
110,Esperance,AU,59.52,broken clouds,-33.8667,121.9,Hospitality Esperance
112,Cape Town,ZA,58.37,drizzle,-33.9258,18.4232,"Radisson Blu Hotel Waterfront, Cape Town"
114,Chitipa,MW,57.79,broken clouds,-9.7024,33.2697,Tulipoka Lodges
115,Puerto Ayora,EC,75.16,scattered clouds,-0.7393,-90.3518,Finch Bay Galapagos Hotel
116,Waingapu,ID,70.34,scattered clouds,-9.6567,120.2641,Pondok Wisata Elim
118,Ribeira Grande,PT,73.8,few clouds,38.5167,-28.7,Quinta da Meia Eira
119,Namangan,UZ,73.85,clear sky,40.9983,71.6726,TANDIMON
120,Dvinskoy,RU,63.95,light rain,62.1535,45.1175,Gostinitsa Dvinskaya
122,Vardo,NO,51.78,moderate rain,70.3705,31.1107,Vardø Hotel AS
124,Touros,BR,76.35,scattered clouds,-5.1989,-35.4608,INN NEW HORIZON
125,Carnarvon,AU,66.74,few clouds,-24.8667,113.6333,Hospitality Carnarvon
129,Oktyabrskiy,RU,70.25,broken clouds,54.4815,53.471,Гостиница Октябрьская
130,Kumba,CM,70.36,overcast clouds,4.6363,9.4469,El Bethel Hotel
132,Haines Junction,CA,55.35,overcast clouds,60.7522,-137.5108,Parkside Inn
133,Sao Joao Da Barra,BR,73.49,few clouds,-21.6403,-41.0511,Pousada Porto De Canoas
134,Antofagasta,CL,61.88,broken clouds,-23.65,-70.4,"Holiday Inn Express Antofagasta, an IHG Hotel"
138,Solnechnyy,RU,66.49,overcast clouds,50.7214,136.6319,Hotel complex Pastoral
141,San Vicente,AR,53.89,clear sky,-26.6167,-54.1333,Complejo Turístico Farelluk
143,Yar-Sale,RU,51.01,overcast clouds,66.8333,70.8333,Yalemd
149,Phek,IN,59.45,scattered clouds,25.6667,94.5,Prayer Centre
150,Mareeba,AU,52.45,clear sky,-17.0,145.4333,Trinity Plains Tourist Park
151,Nakhon Thai,TH,74.17,overcast clouds,17.1006,100.8374,อี๊ฟกะแอมป์รีสอร์ท EVEKAAMP Resort
153,Sao Miguel Do Araguaia,BR,78.55,clear sky,-13.275,-50.1628,Hotel Executivo Palace
154,Abatskoye,RU,64.36,scattered clouds,56.2875,70.4555,Gostinitsa Abatskaya
155,Hondo,JP,79.9,broken clouds,32.45,130.2,ホテル河丁
156,Mitsamiouli,KM,78.06,overcast clouds,-11.3847,43.2844,Foyer ADM
157,Port Hedland,AU,53.65,scattered clouds,-20.3167,118.5667,The Esplanade Hotel
160,Leshukonskoye,RU,64.76,broken clouds,64.8989,45.7622,Pryalitsa Hostel
162,Tambura,SS,68.61,light rain,5.6,27.4667,Rikito Lodge
165,Terney,RU,63.19,overcast clouds,45.0503,136.6092,"Hotel ""Ternay"""
166,Sitka,US,57.09,light rain,57.0531,-135.33,Westmark Sitka
168,Nikolskoye,RU,67.8,broken clouds,59.7035,30.7861,Tourist House - Sablino
169,Vaitape,PF,78.48,light rain,-16.5167,-151.75,Conrad Bora Bora Nui
170,Kruisfontein,ZA,50.88,clear sky,-34.0033,24.7314,Oyster Bay House Rental
172,Mercedes,AR,54.03,overcast clouds,-34.6515,-59.4307,Posada del Inti Centro
173,Jining,CN,77.18,light rain,35.405,116.5814,Yunhe Star Hotel
174,Isangel,VU,78.91,broken clouds,-19.55,169.2667,Tanna Lodge
175,Astoria,US,67.46,clear sky,46.1879,-123.8313,Best Western Astoria Bayfront Hotel
179,Vila Velha,BR,75.15,few clouds,-20.3297,-40.2925,Hotel Vitória Palace
181,Bayonne,FR,76.15,clear sky,43.3333,-1.4167,Hotel Residence Bellevue
183,Baturaja,ID,73.0,overcast clouds,-4.1333,104.1667,"HOTEL Sekar Sunja, Baturaja Timur, Ogan Komering Ulu"
184,Kisangani,CD,73.0,overcast clouds,0.5167,25.2,Grand Ramela Hotel
185,Arraial Do Cabo,BR,71.56,scattered clouds,-22.9661,-42.0278,Pousada Porto Praia
186,Mechetinskaya,RU,70.14,clear sky,46.7713,40.456,"Stoyanka Andreyev Stan, Shinomontazh, Dush, Stirka."
188,Labuan,MY,73.76,scattered clouds,5.2767,115.2417,Tiara Labuan Hotel
189,Malanje,AO,65.12,clear sky,-9.5402,16.341,Hotel Ginga
190,Faanui,PF,78.51,light rain,-16.4833,-151.75,Bora-Bora Pearl Beach Resort & Spa
191,Marienburg,PL,67.12,clear sky,54.0359,19.0266,Hotel Centrum Malbork
192,Urusha,RU,62.2,overcast clouds,54.05,122.9,Dom Otdykha Lokomotivnykh Brigad
193,Mahebourg,MU,65.25,light rain,-20.4081,57.7,Shandrani Beachcomber Resort & Spa
194,Kouqian,CN,66.29,overcast clouds,43.6391,126.4578,Guotai Bathing Hotel
195,Quatre Cocos,MU,65.08,light rain,-20.2078,57.7625,Sunrise Attitude Hotel
196,Masallatah,LY,73.36,clear sky,32.6167,14.0,Mustafa Taher Sowaidan
199,Mezen,RU,65.41,scattered clouds,65.8522,44.24,Gostevoy Dom Everest
202,Hami,CN,76.26,overcast clouds,42.8,93.45,Laoyutang Resort
203,Salalah,OM,77.09,broken clouds,17.0151,54.0924,"HAMDAN PLAZA HOTEL SALALAH, an HTG Hotel"
204,Corrente,BR,78.03,broken clouds,-3.7367,-43.3394,Chapadinhense Hotel
207,Danielskuil,ZA,51.55,clear sky,-28.1887,23.5395,Botha'Sig Gastehuis
208,Sarkand,KZ,59.7,few clouds,45.41,79.9186,Гостиница Сарканд
209,Port Macquarie,AU,51.06,light rain,-31.4333,152.9167,Rydges Port Macquarie
212,Mehamn,NO,55.35,light rain,71.0357,27.8492,Mehamn Arctic Hotel AS
216,Port Lincoln,AU,50.02,clear sky,-34.7333,135.8667,Port Lincoln Hotel
217,Sumenep,ID,78.01,overcast clouds,-7.0167,113.8667,OYO 3271 Homestay Pandian
218,Chavakkad,IN,79.23,overcast clouds,10.5333,76.05,Rajah Island
220,Labuhan,ID,76.28,overcast clouds,-6.8844,112.2051,DoubleFAG
222,College,US,64.47,smoke,64.8569,-147.8028,Pike's Waterfront Lodge
225,Mahon,ES,77.56,clear sky,39.8885,4.2658,ARTIEM Capri
229,Itamaraca,BR,78.85,broken clouds,-7.7478,-34.8256,Special K's Bed & Breakfast
232,Erdenet,MN,56.48,overcast clouds,49.0333,104.0833,Erdenet hotel
233,Tual,ID,79.16,overcast clouds,-5.6667,132.75,Grand Vilia Hotel
237,Itarema,BR,79.32,broken clouds,-2.9248,-39.9167,"Sea Lounge! Bar, Club & Restaurant"
240,Naze,JP,79.72,overcast clouds,28.3667,129.4833,Shishime Hotel
243,Codajas,BR,79.75,overcast clouds,-3.8367,-62.0569,Atlântic Hotel
244,Sinnamary,GF,76.01,overcast clouds,5.3833,-52.95,ALETHEIA Appartement Sinnamary
246,Harper,LR,76.06,overcast clouds,4.375,-7.7169,Screensaver
251,Anadyr,RU,55.9,broken clouds,64.75,177.4833,Отке17.ру — жильё для командированных
252,Magoula,GR,75.74,clear sky,38.0833,23.5167,Elefsina Hotel
255,Severo-Kurilsk,RU,54.45,overcast clouds,50.6789,156.125,Kak Doma
256,Sola,VU,79.47,few clouds,-13.8833,167.55,Leumerus Bungalows
257,Komsomolskiy,UZ,70.52,clear sky,40.4272,71.7189,Ikathouse
258,Namibe,AO,62.92,few clouds,-15.1961,12.1522,Hotel Chik Chik Namibe
259,Praya,CV,75.74,few clouds,14.9215,-23.5087,LT Aparthotel
261,Fairbanks,US,66.22,smoke,64.8378,-147.7164,Westmark Fairbanks Hotel & Conference Center
263,Resavica,RS,60.22,clear sky,44.0408,21.5816,Hotel Đula
266,Fomboni,KM,77.95,broken clouds,-12.28,43.7425,Auberge les abou
267,Ruteng,ID,57.52,overcast clouds,-8.6136,120.4721,Hotel FX 72
268,Batemans Bay,AU,52.11,broken clouds,-35.7167,150.1833,Batemans Bay Marina Resort
269,Matara,LK,78.67,scattered clouds,5.9485,80.5353,Amaloh Boutique Resort
270,Urengoy,RU,50.4,overcast clouds,65.9667,78.3667,Gostinnitsa Medveditsa
271,Trairi,BR,78.69,broken clouds,-3.2778,-39.2689,janelas do mar
272,Saldanha,ZA,55.45,overcast clouds,-33.0117,17.9442,Blue Bay Lodge
274,Curup,ID,67.8,overcast clouds,-3.4667,102.5333,Ayi The Costel
275,Channel-Port Aux Basques,CA,60.73,broken clouds,47.5702,-59.1367,St. Christopher's Hotel
277,Saint-Philippe,RE,65.79,scattered clouds,-21.3585,55.7679,"Chambres d'hôte ""La Trinité"""
279,Stara Synyava,UA,57.63,clear sky,49.6032,27.6191,Готель Стара Синява LEX
280,Binzhou,CN,74.73,clear sky,37.3667,118.0167,Hampton By Hilton Binzhou
284,Guerrero Negro,MX,74.44,few clouds,27.9769,-114.0611,"Casa Laguna, Bed & Breakfast"
285,Bonavista,CA,61.38,overcast clouds,48.6499,-53.1147,Sweet Sharons bnb
286,Nome,US,64.17,scattered clouds,64.5011,-165.4064,Dredge 7 Inn
292,Uray,RU,66.2,broken clouds,60.1247,64.7758,Hotel Pioner
294,Poronaysk,RU,57.18,overcast clouds,49.2167,143.1167,Avtovokzal Khostel Stolovaya
295,Derzhavinsk,KZ,69.03,clear sky,51.1,66.3167,Ooo.khim Baza
296,Mantua,IT,78.04,scattered clouds,45.1667,10.7833,Hotel la Favorita
297,Los Llanos De Aridane,ES,67.75,clear sky,28.6585,-17.9182,Valle Aridane
300,Xingcheng,CN,72.03,clear sky,40.6167,120.7167,New Century Hotel
301,Pisco,PE,66.25,clear sky,-13.7,-76.2167,Hotel San Isidro Oficial
304,Vila Franca Do Campo,PT,69.19,broken clouds,37.7167,-25.4333,Pestana Bahia Praia
306,Vanderhoof,CA,68.58,broken clouds,54.0166,-124.0198,Vanderhoof Inn
308,Rio Grande,BR,51.91,clear sky,-32.035,-52.0986,Hotel Atlântico Rio Grande
311,Marawi,PH,68.13,few clouds,7.9986,124.2928,Derogongan Residence
315,Moshkovo,RU,50.58,scattered clouds,55.3053,83.6104,Rubin
316,Wismar,DE,62.2,clear sky,53.9,11.4667,Townhouse Wismar a Vagabond Club
317,Hualmay,PE,63.59,few clouds,-11.0964,-77.6139,Hotel Villa Kitzia Huacho
318,Port Elizabeth,ZA,59.29,clear sky,-33.918,25.5701,39 On Nile Guest House
320,Praia,CV,75.74,few clouds,14.9215,-23.5087,LT Aparthotel
321,Meulaboh,ID,76.42,overcast clouds,4.1363,96.1285,Kost Pria
322,Kaoma,ZM,52.57,clear sky,-14.7833,24.8,KAOMA AIRPORT
324,Kula,TR,65.61,clear sky,38.5473,28.6498,Anemon Kula Hotel
328,Port-Gentil,GA,75.16,few clouds,-0.7193,8.7815,Fengshui Residence
329,North Bend,US,73.92,clear sky,43.4065,-124.2243,Red Lion Hotel Coos Bay
335,Nara,JP,77.5,light rain,34.6851,135.8049,Guesthouse Nara Komachi
338,Chifeng,CN,68.95,clear sky,42.2683,118.9636,Junyu Tiancheng Hotel
343,Souillac,MU,68.74,light rain,-20.5167,57.5167,Shanti Maurice Resort & Spa
345,Maldonado,UY,50.23,scattered clouds,-34.6667,-54.9167,La Cimarrona
347,Ca Mau,VN,75.29,moderate rain,9.1769,105.15,Mường Thanh Luxury Cà Mau Hotel
348,Asahikawa,JP,69.31,overcast clouds,43.7678,142.3703,Hoshino Resorts OMO7 Asahikawa
350,Apollonia,GR,71.19,clear sky,36.9716,24.7231,Hotel Anthousa
351,La Paz,BO,60.78,scattered clouds,-16.5,-68.15,Hotel Presidente
352,Port Hardy,CA,59.18,broken clouds,50.6996,-127.4199,Airport Inn-Port Hardy
353,Karratha,AU,63.27,scattered clouds,-20.7377,116.8463,ibis Styles Karratha
354,Prince Rupert,CA,55.49,overcast clouds,54.3161,-130.3201,Crest Hotel
357,Letpadan,MM,74.86,overcast clouds,17.7833,95.75,AUNG MYO KYAW
361,Karpathos,GR,73.36,clear sky,35.507,27.2132,Alex
362,Eyl,SO,78.58,broken clouds,7.9803,49.8164,Amiin Hotel
363,Nyazepetrovsk,RU,61.92,clear sky,56.0531,59.6028,Otel' Ural
365,Chinsali,ZM,57.9,few clouds,-10.5414,32.0816,Chisakatu Guest House
366,Suleja,NG,72.36,light rain,9.1758,7.1808,Capy Motel
370,Sistranda,NO,55.36,broken clouds,63.7256,8.834,Hotell Frøya
372,Lumphat,KH,73.29,overcast clouds,13.4878,106.9816,Lumphat Homestay​ &​lake​side
373,Nhulunbuy,AU,70.41,scattered clouds,-12.2333,136.7667,East Arnhem Real Estate
375,Richards Bay,ZA,61.97,clear sky,-28.783,32.0377,BON Hotel Waterfront Richards Bay
377,Warburg,DE,64.26,broken clouds,51.5,9.1667,Hotel ten Hoopen Restaurant Deele
378,Linz,AT,70.23,clear sky,48.3064,14.2861,Stadtoase Kolping Hotel
380,Anloga,GH,75.9,overcast clouds,5.7947,0.8973,Pin Drop Hotel
384,Solhan,TR,68.7,clear sky,38.9634,41.0293,Solhan Ogretmenevi
385,Almeria,ES,73.78,clear sky,37.1667,-2.3333,Casa Rural El Laurel
386,Samfya,ZM,60.1,scattered clouds,-11.3649,29.5565,Chita Lodge Samfya
387,Leh,IN,59.13,scattered clouds,34.1667,77.5833,Hotel Ladakh Greens
388,Chivay,PE,51.19,broken clouds,-15.6383,-71.6011,Casa Andina Standard Colca
389,Bose,IT,75.76,scattered clouds,45.4612,8.0137,Locanda Borgo Antico
391,Aldan,RU,60.49,overcast clouds,58.6031,125.3894,Aldan Guest House
394,Moose Factory,CA,66.2,haze,51.2585,-80.6094,Cree Village Eco Lodge
395,Esfarayen,IR,60.46,clear sky,37.0765,57.5101,دفتر ازدواج 65 : سردفتر ابراهیم برغمدی
398,Juneau,US,58.21,overcast clouds,58.3019,-134.4197,"Baranof Downtown, BW Signature Collection"
399,Simao,CN,64.85,few clouds,22.7886,100.9748,Changyu Hotel
400,Faya,SA,64.51,overcast clouds,18.3851,42.4509,املاك خالد الشعشوع
401,Sovetskiy,RU,66.22,broken clouds,61.3614,63.5842,Apartment on Kievskaya 29
402,Basqal,AZ,69.76,clear sky,40.7552,48.391,BASQAL QONAQ EVI. GUEST HOUSE
403,Pitimbu,BR,77.59,overcast clouds,-7.4706,-34.8086,Reserva do Abiaí
404,Pringsewu,ID,73.63,overcast clouds,-5.3582,104.9744,Urban Style by Front One
405,Amot,NO,50.5,overcast clouds,59.5714,7.9877,Groven Camping og Hyttegrend AS
406,Tarakan,ID,74.7,broken clouds,3.3,117.6333,RedDoorz Syariah near Taman Berlabuh Tarakan
413,Nemuro,JP,60.17,overcast clouds,43.3236,145.575,Hotel Nemuro Kaiyoutei
414,Shimoda,JP,73.11,overcast clouds,34.6667,138.95,Shimoda Tokyu Hotel
415,Roald,NO,56.16,broken clouds,62.5833,6.1333,Flem Cabins
416,Jaciara,BR,78.69,broken clouds,-15.9653,-54.9683,Taba Hotel
417,Tigil,RU,70.75,broken clouds,57.8,158.6667,Tigil'
418,Muzhi,RU,63.57,light rain,65.3667,64.6667,Gostinitsa
419,Iwaki,JP,73.76,overcast clouds,37.05,140.8833,Toyoko Inn Iwaki Ekimae
420,Praia Da Vitoria,PT,71.76,broken clouds,38.7333,-27.0667,Hotel Branco I
422,Severnyy,RU,59.04,broken clouds,50.677,36.5532,Full House North Mini-Hotel
423,Svetlogorsk,BY,54.97,overcast clouds,52.6333,29.7333,Hotel Svetlogorsk JBIK
424,Ketchikan,US,55.87,light rain,55.3422,-131.6461,Snow's Cove Lodge
425,Atambua,ID,65.84,broken clouds,-9.1061,124.8925,Kost Alfa Flat
430,Bereda,ES,72.14,overcast clouds,43.2686,-7.5406,Pazo de Verdes
431,Smithers,CA,59.32,light intensity shower rain,54.7804,-127.1743,"Prestige Hudson Bay Lodge, Premier Collection"
432,Wenling,CN,78.49,overcast clouds,28.3669,121.36,Hanting Express Wenling Wanchang North Road
434,Geraldton,AU,57.61,clear sky,-28.7667,114.6,Broadwater Mariner Resort
435,Towada,JP,68.77,overcast clouds,40.6127,141.2067,Hotel Route-Inn Towada
437,Porto Santo,PT,68.38,few clouds,33.072,-16.3415,Hotel Porto Santo & Spa
440,Padang,ID,78.26,light rain,-0.9492,100.3543,Mercure Padang
441,Grand Gaube,MU,65.37,moderate rain,-20.0064,57.6608,Veranda Paul et Virginie Hotel & Spa
442,Sao Filipe,CV,75.06,scattered clouds,14.8961,-24.4956,Hotel Xaguate
443,Arari,BR,75.34,light rain,-3.4536,-44.78,Churrascaria E Hotel Brisa Do Mearim
444,Bay Roberts,CA,74.95,broken clouds,47.5999,-53.2648,Stonewall Inn
445,Yuzawa,JP,72.27,overcast clouds,39.1667,140.5,Yuzawa Royal Hotel
446,Puerto Quijarro,BO,79.72,few clouds,-17.7833,-57.7667,Hotel palance
447,Solok,ID,71.04,overcast clouds,-0.7918,100.6593,Mami Hotel & Restaurant
449,Suntar,RU,59.43,overcast clouds,62.1444,117.6319,Гостевая квартира
450,Kendari,ID,73.17,overcast clouds,-3.945,122.4989,Hotel Wixel
452,Pathein,MM,75.16,overcast clouds,16.7833,94.7333,Pathein Hotel
453,Ahipara,NZ,55.31,light rain,-35.1667,173.1667,Ahipara Holiday Park
454,Ballina,AU,52.02,broken clouds,-28.8667,153.5667,Ramada Hotel & Suites by Wyndham Ballina Byron
455,Bilibino,RU,60.4,overcast clouds,68.0546,166.4372,Gostinitsa Severyanka
456,Calama,CL,61.29,clear sky,-22.4667,-68.9333,Park Hotel Calama
457,Mabaruma,GY,75.56,broken clouds,8.2,-59.7833,Monty Brooms Guest House
458,Udala,ES,71.8,few clouds,43.0778,-2.5125,Hotel Arrasate
459,Nauta,PE,78.28,overcast clouds,-4.5061,-73.5757,Amazon Exploring Expedition - Eretzen Tá Lodge
460,Otane,NZ,57.0,overcast clouds,-39.8833,176.6333,Ludlow Farmstay
461,Yenagoa,NG,74.05,light rain,4.9247,6.2642,Aridolf Resort Wellness and Spa
462,Sambava,MG,67.82,few clouds,-14.2667,50.1667,Melrose
463,Hay River,CA,69.78,thunderstorm with rain,60.8156,-115.7999,Ptarmigan Inn
466,Bondowoso,ID,72.1,overcast clouds,-7.9135,113.8214,Anugerah Hotel Bondowoso
467,Sungaipenuh,ID,64.31,overcast clouds,-2.0833,101.3833,Penginapan Citra Alam
468,Pronsk,RU,58.71,few clouds,54.1048,39.6092,Gostevoy Dom Pronskaya Usad'ba
469,Jipijapa,EC,71.1,overcast clouds,-1.3333,-80.5833,Hotel Los Ceibos Jipijapa
471,Santa Cruz Cabralia,BR,73.63,scattered clouds,-16.2781,-39.0247,Puerto Princesa Inn
472,Hobyo,SO,78.51,broken clouds,5.3505,48.5268,Iftin hotel hobyo
474,Alyangula,AU,67.78,broken clouds,-13.8483,136.4192,Groote Eylandt Lodge
475,Imbituba,BR,59.09,few clouds,-28.24,-48.6703,Praia Hotel Imbituba
478,Hailar,CN,61.48,overcast clouds,49.2,119.7,Holiday Inn & Suites Hulunbuir
479,Margate,GB,65.89,overcast clouds,51.3813,1.3862,Premier Inn Margate hotel
480,Churapcha,RU,68.43,overcast clouds,62.0025,132.4325,"""Tusku"""
481,Kencong,ID,74.07,overcast clouds,-8.2833,113.3667,GUBUK SUGIANTO
482,Ebenthal,AT,69.98,clear sky,46.6081,14.3642,Hotel Liebetegger
483,Uruguaiana,BR,58.93,few clouds,-29.7547,-57.0883,Fares Turis Hotel
486,Saint-Andre-Avellin,CA,74.93,overcast clouds,45.7168,-75.066,Auberge Petite-Nation
488,Kayankulam,IN,77.97,overcast clouds,9.1833,76.5,Hotel Indraprastha
489,Kenai,US,64.02,overcast clouds,60.5544,-151.2583,Aspen Extended Stay Suites
490,Moroni,KM,76.55,broken clouds,-11.7022,43.2551,Hotel Les Arcades
491,Wajima,JP,76.59,overcast clouds,37.4,136.9,Wajiima Onsen Yashio
492,Chiscas,CO,62.78,broken clouds,6.5524,-72.4998,Hotel mi Ranchito
493,Bandarbeyla,SO,76.35,broken clouds,9.4942,50.8122,JABIR HOTEL
495,Teguise,ES,68.22,clear sky,29.0605,-13.564,B&B La Casona de Nazaret
497,Inhambane,MZ,65.79,clear sky,-23.865,35.3833,Oceano
498,Kutum,SD,73.8,light rain,14.2,24.6667,Dibbo areaمنطقة دبو
499,Selikhino,RU,66.97,overcast clouds,50.3672,137.4996,Tosklivyy Dom
506,Cap Malheureux,MU,65.46,moderate rain,-19.9842,57.6142,Pereybere Hotel & Spa
508,Vao,NC,73.2,overcast clouds,-22.6667,167.4833,Hotel Kou-Bugny
509,Antalaha,MG,66.27,scattered clouds,-14.9003,50.2788,Hotel Vitasoa
510,Salinopolis,BR,78.48,overcast clouds,-0.6136,-47.3561,Salinas Park Resort Maçarico AP101
511,Marck,FR,65.03,overcast clouds,50.949,1.9433,ibis Calais Car Ferry
514,Gat,IL,77.68,few clouds,31.61,34.7642,OlusHome
516,Erenhot,CN,68.4,broken clouds,43.6475,111.9767,Erenhot Rurouni Youth Hostel
518,Gambela,ET,69.96,overcast clouds,8.25,34.5833,Solomon Debebe Hotel
519,Eresos,GR,70.9,clear sky,39.1667,25.9333,Studio Aspa
522,Axim,GH,74.97,overcast clouds,4.8699,-2.2405,Axim Beach Resort And Spa
524,Pyaozerskiy,RU,62.82,broken clouds,65.8333,31.1667,Taratuga
529,Morondava,MG,69.8,clear sky,-20.2833,44.2833,La Case Bambou
531,Dingle,PH,75.96,scattered clouds,10.9995,122.6711,SEGAYA PROPERTY
534,Kindu,CD,75.87,broken clouds,-2.95,25.95,Résidence Okanda
535,Moramanga,MG,56.39,overcast clouds,-18.9333,48.2,Espace VANILLA
538,Muros,ES,74.84,overcast clouds,42.7762,-9.0603,Apartment Av. Castelao
539,Harnosand,SE,57.22,overcast clouds,62.6323,17.9379,First Hotel Stadt
541,Vigrestad,NO,55.08,broken clouds,58.5667,5.7,Brusand Camping
542,Barrhead,GB,56.73,overcast clouds,55.7992,-4.3929,The Gleniffer
543,Yuanping,CN,69.6,few clouds,38.7153,112.7575,Yuanping Xinghe Guesthouse
545,Palimbang,PH,76.78,broken clouds,6.2106,124.1894,Felmar Beach resort
546,Kaeo,NZ,55.33,light rain,-35.1,173.7833,Bushido Lodge
547,Gander,CA,64.53,broken clouds,48.9682,-54.5906,Quality Hotel & Suites
550,Nabire,ID,75.13,overcast clouds,-3.3667,135.4833,Hotel Nusantara I
551,Sehithwa,BW,59.34,clear sky,-20.4667,22.7167,MONLEK GUEST HOUSE
553,Omboue,GA,70.81,clear sky,-1.5746,9.2618,Hotel Olako
554,Sudbury,CA,74.05,overcast clouds,46.49,-80.99,Travelway Inn Sudbury
557,Esil,KZ,67.03,clear sky,51.9556,66.4042,Egorkino Hotel
558,Broome,US,77.38,scattered clouds,42.2506,-75.833,Chenango Valley State Park
559,Teahupoo,PF,75.16,scattered clouds,-17.8333,-149.2667,Vanira Lodge
560,Malakal,SS,74.03,broken clouds,9.5334,31.6605,Nile Palace Hotel
561,Akureyri,IS,55.33,broken clouds,65.6835,-18.0878,Icelandair Hotel Akureyri
562,Bunda,TZ,68.13,broken clouds,-2.05,33.8667,Tembea Mara at Balili Village
564,Timbauba,BR,69.96,broken clouds,-7.5053,-35.3183,Alane’s house
565,Monrovia,LR,76.15,light rain,6.3005,-10.7969,Sunset Inn
567,Fare,PF,77.79,scattered clouds,-16.7,-151.0167,Maitai Lapita Village Huahine
569,Kamaishi,JP,68.68,overcast clouds,39.2667,141.8833,Hotel Route Inn Kamaishi
570,Coos Bay,US,73.99,clear sky,43.3665,-124.2179,Best Western Holiday Hotel
571,Jugsalai,IN,79.74,scattered clouds,22.7667,86.1833,Ginger Jamshedpur
572,Shahr-E Kord,IR,64.17,clear sky,32.3256,50.8644,Shahrekord Tourist Hotel
573,Preobrazheniye,RU,65.1,moderate rain,42.9019,133.9064,Campsite Orlan
574,Taltal,CL,57.02,overcast clouds,-25.4,-70.4833,Residencial Karime
576,Nong Kung Si,TH,79.83,moderate rain,16.65,103.3,บ้าน พี่บิ๊ก
577,Aleksandrovskiy Zavod,RU,58.12,overcast clouds,50.9237,117.9374,Druzhba
579,Suksun,RU,65.44,few clouds,57.1431,57.3949,Island Relax
580,General Delgado,PY,58.55,scattered clouds,-27.1667,-56.5167,Andreea Patricia Estate
582,Saiha,IN,68.95,light rain,22.4833,92.9667,"Circuit House, Siaha"
583,Bakhmach,UA,56.41,light rain,51.1808,32.7569,Мини Отель
584,Cortona,IT,66.18,clear sky,43.2745,11.9871,Hotel Villa Marsili
585,Paraiso,CR,66.96,overcast clouds,9.8383,-83.8656,Hotel Rinconcito Verde
587,Zhangye,CN,77.07,light rain,38.9342,100.4517,Zhangye Lvzhou Holiday Inn
590,Morsbach,DE,71.46,broken clouds,50.8667,7.75,Landgasthof Wildenburger Hof
591,Mahajanga,MG,75.22,scattered clouds,-15.7167,46.3167,Hôtel Restaurant Gourmand Coco Lodge Majunga
593,Utete,TZ,75.81,overcast clouds,-7.986,38.758,River View Lodge
594,Kapuskasing,CA,71.69,broken clouds,49.4169,-82.4331,Park Inn Motel
596,Mnogovershinnyy,RU,69.35,overcast clouds,53.9353,139.9242,Obshchezhitiye 14
598,Darhan,MN,64.83,overcast clouds,49.4867,105.9228,Buudai Hotel
600,Laval,CA,78.85,broken clouds,45.57,-73.692,Sheraton Laval Hotel
602,Obzor,BG,70.34,clear sky,42.8167,27.8833,HVD Clubhotel Miramar
603,Sayansk,RU,52.86,overcast clouds,54.1088,102.1648,Yubileynaya
604,Karasjok,NO,60.17,light rain,69.4719,25.5112,Karasjok camping AS
606,Cubuk,TR,66.76,clear sky,40.2386,33.0322,Çubuk Öğretmenevi
607,Cabedelo,BR,77.67,broken clouds,-6.9811,-34.8339,Pousada Camboinha
608,Takoradi,GH,74.48,overcast clouds,4.8845,-1.7554,Raybow International Hotel
609,Ponta Delgada,PT,69.49,light intensity drizzle,37.7333,-25.6667,Vila Nova Hotel
611,Copiapo,CL,55.09,few clouds,-27.3667,-70.3333,Antay Casino Hotel
614,Ornskoldsvik,SE,61.75,overcast clouds,63.2909,18.7153,ファーストホテル スタット
616,Kautokeino,NO,60.21,overcast clouds,69.0125,23.0412,Thon Hotel Kautokeino
617,Olinda,BR,78.53,scattered clouds,-8.0089,-34.8553,Flat Quatro Rodas Olinda
619,Beaufort,MY,73.22,overcast clouds,5.3473,115.7455,The Gem Hotel Beaufort
620,Ayan,RU,59.5,overcast clouds,56.45,138.1667,Gostinitsa
622,Saint Albans,GB,70.84,overcast clouds,51.75,-0.3333,The White Hart
623,Sorong,ID,77.07,overcast clouds,-0.8833,131.25,Waigo Splash Hotel
626,Lac Du Bonnet,CA,76.14,broken clouds,50.2536,-96.0612,Drifter's Inn
627,Lobatse,BW,53.71,few clouds,-25.2167,25.6667,Swinburn's Rest
628,Porangatu,BR,77.94,clear sky,-13.4408,-49.1486,Wembley Park Hotel
629,Petropavlivka,UA,62.26,overcast clouds,48.4564,36.4367,Банька в Петропавловке
630,Bontang,ID,76.05,light rain,0.1333,117.5,KOPKAR Hotel Bintang Sintuk
631,Mattru,SL,73.2,light rain,7.6244,-11.8332,"Mondkor Town, Bagbo Chiefdom, Bo District"
632,Srandakan,ID,75.42,overcast clouds,-7.9386,110.2506,Puri Brata
633,Xining,CN,64.08,overcast clouds,36.6167,101.7667,Super Leisure Hotel
635,Ambulu,ID,73.94,overcast clouds,-8.345,113.6058,Hotel Ambulu Jember
636,Currais Novos,BR,71.83,overcast clouds,-6.2608,-36.5178,Sâmily Flat Hotel
637,Vytegra,RU,64.02,overcast clouds,61.0064,36.4481,Wardenclyffe Volgo&Balt
638,Ranong,TH,77.85,light rain,9.9658,98.6348,Numsai Khaosuay Resort Ranong
639,Dzaoudzi,YT,76.89,clear sky,-12.7887,45.2699,Le Rocher
640,Cururupu,BR,75.06,overcast clouds,-1.8283,-44.8683,POUSADA TRAVÉS'CIA
643,Salta,AR,64.99,clear sky,-24.7859,-65.4117,Hotel Alejandro I
644,Pouembout,NC,70.68,overcast clouds,-21.1333,164.9,Camping de Tipenga
648,Lianzhou,CN,75.27,clear sky,24.7811,112.3825,Qingcheng Tourism Industry
649,Cristalina,BR,63.01,scattered clouds,-16.7686,-47.6136,HOTEL TOPAZIO
651,Volax,GR,61.84,clear sky,41.3167,24.0,Monopati E6
652,Porosozero,RU,55.78,few clouds,62.7191,32.727,Porosozero
654,Maarianhamina,AX,62.46,clear sky,60.0973,19.9348,Park Alandia Hotel
